codigo_municipio,nombre_municipio,codigo_departamento,LATITUD,LONGITUD
05004,Abriaquí,05,6.627569378,-76.08597756
95025,El Retorno,95,2.143447362,-72.24364869
95200,Miraflores,95,1.363974932,-72.01810951
97001,Mitú,97,1.06148231,-70.46688401
97161,Caruru,97,1.052762314,-71.33093035
97511,Pacoa,97,-0.00834364,-70.5433061
97666,Taraira,97,-0.719822209,-69.90776202
97777,Papunaua,97,1.569312273,-70.91166315
97889,Yavaraté,97,0.833312241,-69.61867754
99001,Puerto Carreño,99,5.836529669,-68.14122234
99524,La Primavera,99,5.517593607,-69.62044054
99624,Santa Rosalía,99,4.968581012,-70.65997097
99773,Cumaribo,99,4.262454746,-69.52140484
95001,San José del Guaviare,95,2.484286091,-71.91916993
94887,Pana Pana,94,1.981055294,-69.11440036
94886,Cacahual,94,3.38616245,-67.58507998
94885,La Guadalupe,94,1.404540273,-67.001518
94884,Puerto Colombia,94,2.582829542,-68.25799033
94883,San Felipe,94,2.312179782,-67.52060569
94343,Barranco Minas,94,3.140558454,-69.69713423
94001,Inírida,94,3.516363079,-68.00834728
91798,Tarapacá,91,-2.451794264,-70.00651535
91669,Puerto Santander,91,-1.101032624,-71.93893358
91540,Puerto Nariño,91,-3.631323222,-70.47199039
91536,Puerto Arica,91,-1.91085406,-71.1484049
91530,Puerto Alegría,91,-0.952145073,-73.75722748
91460,Miriti - Paraná,91,-0.687037553,-71.1855046
91430,La Victoria,91,-0.125016381,-71.10487805
91407,La Pedrera,91,-1.550256503,-69.94602815
91405,La Chorrera,91,-1.509799605,-72.44442966
91263,El Encanto,91,-1.997234795,-72.72361566
91001,Leticia,91,-3.530058784,-70.04513691
88564,Providencia,88,13.3511096,-81.37388549
88001,San Andrés,88,12.54311512,-81.71762382
86885,Villagarzón,86,0.911149515,-76.74495447
86865,Valle del Guamuez,86,0.42012589,-76.77067026
86760,Santiago,86,1.036021482,-76.97751684
86757,San Miguel,86,0.272449048,-76.84510459
86755,San Francisco,86,1.136071096,-76.84726661
86749,Sibundoy,86,1.228746922,-76.91307585
86573,Leguízamo,86,0.05947197,-75.06479327
86571,Puerto Guzmán,86,0.746432215,-75.88022979
86569,Puerto Caicedo,86,0.70416861,-76.49864415
86568,Puerto Asís,86,0.433884539,-76.52158203
86320,Orito,86,0.673756323,-76.94313923
86219,Colón,86,1.204815876,-76.97376805
86001,Mocoa,86,1.26070915,-76.66584349
85440,Villanueva,85,4.528307719,-72.82314281
85430,Trinidad,85,5.354527091,-71.25479519
85410,Tauramena,85,4.697463691,-72.62922436
85400,Támara,85,5.878927424,-72.20067822
85325,San Luis de Palenque,85,5.274955665,-71.81749276
85315,Sácama,85,6.049906435,-72.21076163
85300,Sabanalarga,85,4.81119011,-72.99580655
85279,Recetor,85,5.263068507,-72.77081831
85263,Pore,85,5.663194953,-71.92580806
85250,Paz de Ariporo,85,5.779915281,-70.86947037
85230,Orocué,85,4.915139133,-71.59873966
85225,Nunchía,85,5.529181235,-72.09251937
85162,Monterrey,85,4.841308642,-72.8473434
85139,Maní,85,4.675769488,-72.21280273
85136,La Salina,85,6.178282373,-72.34693377
85125,Hato Corozal,85,6.03948032,-71.52445752
85015,Chameza,85,5.228453404,-72.86496804
85010,Aguazul,85,5.126121886,-72.54821017
85001,Yopal,85,5.242744761,-72.25802857
81794,Tame,81,6.390650479,-71.79178647
81736,Saravena,81,6.906941714,-71.85070757
81591,Puerto Rondón,81,6.411761829,-70.96678964
81300,Fortul,81,6.750907234,-71.79124241
81220,Cravo Norte,81,6.39654349,-70.07381197
81065,Arauquita,81,6.799338394,-71.29827429
81001,Arauca,81,6.796280825,-70.50921153
76895,Zarzal,76,4.35359875,-76.05065336
76892,Yumbo,76,3.595913669,-76.5109879
76890,Yotoco,76,3.904130354,-76.39080435
76869,Vijes,76,3.74365889,-76.47064718
76863,Versalles,76,4.644242641,-76.25924483
76845,Ulloa,76,4.707718947,-75.77835903
76834,Tuluá,76,4.02840797,-76.03250379
76828,Trujillo,76,4.233268116,-76.34292699
76823,Toro,76,4.638421279,-76.08106176
76736,Sevilla,76,4.193411919,-75.88818163
76670,San Pedro,76,3.98143244,-76.20836168
76622,Roldanillo,76,4.443571848,-76.16824249
76616,Riofrío,76,4.109500298,-76.37105443
76606,Restrepo,76,3.806494973,-76.53489853
76563,Pradera,76,3.42063665,-76.17841841
76520,Palmira,76,3.558392876,-76.22779972
76497,Obando,76,4.597588666,-75.9491997
76403,La Victoria,76,4.483511142,-75.96677303
76400,La Unión,76,4.537937391,-76.10328983
76377,La Cumbre,76,3.694303106,-76.58989905
76364,Jamundí,76,3.213892389,-76.62760418
76318,Guacarí,76,3.759414991,-76.34518277
76306,Ginebra,76,3.74410441,-76.19082004
76275,Florida,76,3.304104295,-76.16477307
76250,El Dovio,76,4.539979729,-76.28762701
76248,El Cerrito,76,3.656072873,-76.30841784
76246,El Cairo,76,4.756063701,-76.21502826
76243,El Águila,76,4.917562873,-76.06601001
76233,Dagua,76,3.649822218,-76.72039347
76147,Cartago,76,4.70684716,-75.91790846
76130,Candelaria,76,3.382091564,-76.38317663
76126,Calima El Darien,76,3.923271619,-76.64260484
76122,Caicedonia,76,4.308997973,-75.83672567
76113,Bugalagrande,76,4.196852991,-76.0896103
76111,Guadalajara de Buga,76,3.819854318,-75.98312419
76109,Buenaventura,76,3.493340766,-77.11872832
76100,Bolívar,76,4.393118861,-76.34982039
76054,Argelia,76,4.704287864,-76.14164999
76041,Ansermanuevo,76,4.795927292,-76.02963049
76036,Andalucía,76,4.153314228,-76.16063341
76020,Alcalá,76,4.6788971,-75.78297932
76001,Cali,76,3.399043723,-76.57649259
73873,Villarrica,73,3.854384097,-74.61896623
73870,Villahermosa,73,4.965753461,-75.15592969
73861,Venadillo,73,4.70988172,-74.92089886
73854,Valle de San Juan,73,4.182125647,-75.17148237
73770,Suárez,73,3.969210629,-74.84448738
73686,Santa Isabel,73,4.740827622,-75.20069946
73678,San Luis,73,4.057271684,-75.16320806
73675,San Antonio,73,3.926088268,-75.50991004
73671,Saldaña,73,3.912542787,-75.01859762
73624,Rovira,73,4.216730954,-75.34758364
73622,Roncesvalles,73,4.097861181,-75.59428027
73616,Rioblanco,73,3.468077548,-75.85481103
73585,Purificación,73,3.854281614,-74.87451155
73563,Prado,73,3.729166649,-74.87247706
73555,Planadas,73,3.09897343,-75.81684413
73547,Piedras,73,4.433764446,-74.99879938
73520,Palocabildo,73,5.094035737,-75.0184505
73504,Ortega,73,3.937793962,-75.27824314
73483,Natagaima,73,3.540518203,-75.12200999
73461,Murillo,73,4.826734468,-75.21993987
73449,Melgar,73,4.193215498,-74.60517497
73443,Mariquita,73,5.235322593,-74.90668089
73411,Líbano,73,4.877936755,-75.04763076
73408,Lérida,73,4.866034592,-74.92337178
73352,Icononzo,73,4.133276369,-74.53964257
73349,Honda,73,5.179416561,-74.78303094
73347,Herveo,73,5.068553783,-75.24322959
73319,Guamo,73,4.076501341,-74.97657287
73283,Fresno,73,5.186694812,-75.05228995
73275,Flandes,73,4.242813257,-74.83708638
05002,Abejorral,05,5.803728154,-75.43847353
73270,Falan,73,5.079256598,-74.95703372
73268,Espinal,73,4.166476969,-74.89352941
73236,Dolores,73,3.597863274,-74.80256674
73226,Cunday,73,3.98252395,-74.68936908
73217,Coyaima,73,3.775490271,-75.14720213
73200,Coello,73,4.315603867,-74.91470256
73168,Chaparral,73,3.743693084,-75.58986634
73152,Casabianca,73,5.007003948,-75.19457703
73148,Carmen de Apicalá,73,4.123416795,-74.74700246
73124,Cajamarca,73,4.406971283,-75.49745918
73067,Ataco,73,3.37749064,-75.61373257
73055,Armero,73,5.006758956,-74.84750095
73043,Anzoátegui,73,4.623390454,-75.20165423
73030,Ambalema,73,4.803365246,-74.80998676
73026,Alvarado,73,4.582625784,-74.98630686
73024,Alpujarra,73,3.390015064,-74.94078233
73001,Ibagué,73,4.451921427,-75.252591
70823,Toluviejo,70,9.490297716,-75.44451115
70820,Santiago de Tolú,70,9.533810567,-75.53543469
70771,Sucre,70,8.814333477,-74.74753131
70742,Sincé,70,9.256299047,-75.09397089
70717,San Pedro,70,9.396835638,-75.03741815
70713,San Onofre,70,9.814599536,-75.50522919
70708,San Marcos,70,8.589220102,-75.17249955
70702,San Juan de Betulia,70,9.292019071,-75.21363579
70678,San Benito Abad,70,8.835634919,-74.96469398
70670,Sampués,70,9.165188649,-75.36027422
70523,Palmito,70,9.334940293,-75.56199027
70508,Ovejas,70,9.549655271,-75.18855916
70473,Morroa,70,9.392496685,-75.32718744
70429,Majagual,70,8.546148134,-74.71037883
70418,Los Palmitos,70,9.422380117,-75.21302191
70400,La Unión,70,8.811997799,-75.28322212
70265,Guaranda,70,8.337828523,-74.68734926
70235,Galeras,70,9.135169096,-74.98134706
70233,El Roble,70,9.036231591,-75.14575038
70230,Chalán,70,9.569584598,-75.32420908
70221,Coveñas,70,9.394449802,-75.6574915
70215,Corozal,70,9.160624283,-75.23858178
70204,Colosó,70,9.494043427,-75.34528693
70124,Caimito,70,8.792311599,-75.13191063
70110,Buenavista,70,9.314972282,-74.98014057
70001,Sincelejo,70,9.316673928,-75.43174967
68895,Zapatoca,68,6.813725566,-73.30975044
68872,Villanueva,68,6.685867326,-73.16396916
68867,Vetas,68,7.322219563,-72.88156901
68861,Vélez,68,6.00741043,-73.69057256
68855,Valle de San José,68,6.434578919,-73.10997171
68820,Tona,68,7.170891099,-72.93970443
68780,Suratá,68,7.475402063,-72.98779966
68773,Sucre,68,5.983203734,-73.95936235
68770,Suaita,68,6.101499739,-73.36225795
68755,Socorro,68,6.462088241,-73.24436001
68745,Simacota,68,6.494231551,-73.45910992
68720,Santa Helena del Opón,68,6.40890734,-73.58206609
68705,Santa Bárbara,68,6.988084711,-72.89608933
68689,San Vicente de Chucurí,68,6.894292346,-73.53900334
68686,San Miguel,68,6.568121541,-72.64322497
68684,San José de Miranda,68,6.629400185,-72.73976423
68682,San Joaquín,68,6.459879823,-72.85471883
68679,San Gil,68,6.550778765,-73.11887911
68673,San Benito,68,6.076525355,-73.55295302
68669,San Andrés,68,6.796483063,-72.81613202
68655,Sabana de Torres,68,7.4065422,-73.57131807
68615,Rionegro,68,7.474226085,-73.37246417
68575,Puerto Wilches,68,7.398198257,-73.8354696
68573,Puerto Parra,68,6.685278856,-73.95761256
68572,Puente Nacional,68,5.831129906,-73.67841815
68549,Pinchote,68,6.513892626,-73.17570986
68547,Piedecuesta,68,6.97082104,-73.01481196
68533,Páramo,68,6.416631131,-73.17148232
68524,Palmas del Socorro,68,6.391750107,-73.28273174
68522,Palmar,68,6.525876964,-73.28247337
68502,Onzaga,68,6.335194548,-72.81205838
68500,Oiba,68,6.225596216,-73.27961515
68498,Ocamonte,68,6.355368858,-73.12211833
68468,Molagavita,68,6.643290559,-72.81916274
68464,Mogotes,68,6.492532315,-72.95834772
68444,Matanza,68,7.348778319,-73.05438997
68432,Málaga,68,6.720222349,-72.73841091
68425,Macaravita,68,6.513745303,-72.58536492
68418,Los Santos,68,6.812162934,-73.10785086
68406,Lebríja,68,7.204060063,-73.29138097
68397,La Paz,68,6.21737437,-73.62977195
68385,Landázuri,68,6.385234814,-73.78760899
68377,La Belleza,68,5.895724341,-74.04676575
68370,Jordán,68,6.710814846,-73.1211236
68368,Jesús María,68,5.872705896,-73.78997419
68344,Hato,68,6.559878299,-73.36178841
68327,Güepsa,68,6.04656148,-73.57847854
68324,Guavatá,68,5.944894844,-73.72173671
68322,Guapotá,68,6.319299865,-73.33115275
68320,Guadalupe,68,6.233278248,-73.40977445
68318,Guaca,68,6.9434341,-72.82369873
68307,Girón,68,6.976734127,-73.205267
68298,Gambita,68,5.924383558,-73.31939934
68296,Galán,68,6.671810994,-73.32467124
68276,Floridablanca,68,7.079704598,-73.0679925
68271,Florián,68,5.801106291,-73.95524931
68266,Enciso,68,6.65824115,-72.68027939
68264,Encino,68,6.079061224,-73.06206665
68255,El Playón,68,7.524284721,-73.18158192
68250,El Peñón,68,6.123389691,-74.00040397
68245,El Guacamayo,68,6.236115743,-73.4977605
68235,El Carmen de Chucurí,68,6.664260002,-73.56475288
68229,Curití,68,6.608966483,-73.05897888
68217,Coromoro,68,6.234735779,-72.98176803
68211,Contratación,68,6.303116611,-73.50211527
68209,Confines,68,6.342314443,-73.25014013
68207,Concepción,68,6.76062337,-72.61815735
68190,Cimitarra,68,6.40972961,-74.17030427
68179,Chipatá,68,6.067944658,-73.63239132
68176,Chima,68,6.361627641,-73.40172144
68169,Charta,68,7.282973001,-72.97829057
68167,Charalá,68,6.35099819,-73.06101382
68162,Cerrito,68,6.903923173,-72.64536324
68160,Cepitá,68,6.752465533,-72.92924629
68152,Carcasí,68,6.659675274,-72.56968434
68147,Capitanejo,68,6.520200095,-72.67435203
68132,California,68,7.331565443,-72.95131825
68121,Cabrera,68,6.562543673,-73.25034892
68101,Bolívar,68,6.181715586,-73.92065703
68092,Betulia,68,7.033255886,-73.37872388
68081,Barrancabermeja,68,7.054074558,-73.78211646
68079,Barichara,68,6.647062543,-73.21518466
68077,Barbosa,68,5.955617327,-73.62345229
68051,Aratoca,68,6.716766585,-73.01162697
68020,Albania,68,5.788190519,-73.79236929
68013,Aguada,68,6.182208476,-73.53038541
68001,Bucaramanga,68,7.155833544,-73.11156997
66687,Santuario,66,5.076100313,-76.02286946
66682,Santa Rosa de Cabal,66,4.833789828,-75.54950174
66594,Quinchía,66,5.323906864,-75.71339683
66572,Pueblo Rico,66,5.286295408,-76.07359421
66456,Mistrató,66,5.414078141,-75.96135387
66440,Marsella,66,4.942936185,-75.7532139
66400,La Virginia,66,4.904704187,-75.85208162
66383,La Celia,66,4.988127679,-76.00822678
66318,Guática,66,5.320295966,-75.80436659
66170,Dosquebradas,66,4.842021144,-75.66993655
66088,Belén de Umbría,66,5.200398696,-75.86793893
66075,Balboa,66,4.918349676,-75.94275386
66045,Apía,66,5.139635357,-75.95353871
66001,Pereira,66,4.803662773,-75.79579093
63690,Salento,63,4.611314654,-75.53092112
63594,Quimbaya,63,4.610273497,-75.79205087
63548,Pijao,63,4.30397934,-75.68330417
63470,Montenegro,63,4.521890945,-75.81806594
63401,La Tebaida,63,4.426884849,-75.81927335
63302,Génova,63,4.180107773,-75.76056695
63272,Filandia,63,4.669325347,-75.67146941
63212,Córdoba,63,4.395975176,-75.65132308
63190,Circasia,63,4.604845344,-75.66688449
63130,Calarca,63,4.467879428,-75.65674719
63111,Buenavista,63,4.366632382,-75.74403734
63001,Armenia,63,4.499501128,-75.72489985
54874,Villa del Rosario,54,7.718635863,-72.48361176
54871,Villa Caro,54,7.936293173,-72.98759418
54820,Toledo,54,7.225864961,-72.30593418
54810,Tibú,54,8.713507237,-72.79925855
54800,Teorama,54,8.760013794,-73.15714097
54743,Silos,54,7.180991879,-72.78617884
54720,Sardinata,54,8.215080767,-72.79580961
54680,Santiago,54,7.889234454,-72.7182541
54673,San Cayetano,54,7.847872195,-72.60971203
54670,San Calixto,54,8.414441404,-73.2176038
54660,Salazar,54,7.772747824,-72.86769959
54599,Ragonvalia,54,7.595355974,-72.50756622
54553,Puerto Santander,54,8.329138642,-72.41119066
54520,Pamplonita,54,7.48287886,-72.63515401
54518,Pamplona,54,7.379057623,-72.67590348
54498,Ocaña,54,8.206637527,-73.33765033
54480,Mutiscua,54,7.31694997,-72.76834584
54418,Lourdes,54,7.963712759,-72.8467029
54405,Los Patios,54,7.742291094,-72.52680784
54398,La Playa,54,8.256757875,-73.18789327
54385,La Esperanza,54,7.695233593,-73.36139672
54377,Labateca,54,7.218372474,-72.48281514
54347,Herrán,54,7.493955781,-72.49269998
54344,Hacarí,54,8.361831987,-73.0782633
54313,Gramalote,54,7.906522991,-72.80705582
54261,El Zulia,54,8.081200092,-72.63152118
54250,El Tarra,54,8.678263671,-73.0317597
54245,El Carmen,54,8.867990035,-73.34585922
54239,Durania,54,7.746993206,-72.67208072
54223,Cucutilla,54,7.502182366,-72.79703447
54206,Convención,54,8.873159895,-73.20007769
54174,Chitagá,54,7.05161677,-72.52544746
54172,Chinácota,54,7.583353136,-72.58390978
54128,Cachirá,54,7.684188896,-73.12939481
54125,Cácota,54,7.270560088,-72.65212153
54109,Bucarasica,54,8.079802239,-72.92919926
54099,Bochalema,54,7.608509339,-72.65951909
54051,Arboledas,54,7.586048164,-72.91705315
54003,Abrego,54,8.019834481,-73.15850485
54001,Cúcuta,54,8.112041811,-72.48862641
52885,Yacuanquer,52,1.125547916,-77.42467569
52838,Túquerres,52,1.134440523,-77.63073238
52835,San Andres de Tumaco,52,1.574550638,-78.61540963
52788,Tangua,52,1.064078111,-77.35063491
52786,Taminango,52,1.591661392,-77.32525316
52720,Sapuyes,52,1.045287475,-77.71810954
52699,Santacruz,52,1.285179376,-77.7445744
52696,Santa Bárbara,52,2.494420411,-77.98256461
52694,San Pedro de Cartago,52,1.536823494,-77.10140325
52693,San Pablo,52,1.681576627,-76.97527979
52687,San Lorenzo,52,1.542139582,-77.21872693
52685,San Bernardo,52,1.529782485,-77.02070663
52683,Sandoná,52,1.288105409,-77.45670068
52678,Samaniego,52,1.430555262,-77.69179559
52621,Roberto Payán,52,1.897581156,-78.3811163
52612,Ricaurte,52,1.147671848,-78.05811118
52585,Pupiales,52,0.916769831,-77.63336954
52573,Puerres,52,0.854351651,-77.35032523
52565,Providencia,52,1.232864821,-77.59844212
52560,Potosí,52,0.785841088,-77.52870407
52540,Policarpa,52,1.735354202,-77.48134359
52520,Francisco Pizarro,52,2.088531925,-78.59193099
52506,Ospina,52,1.029815854,-77.55234944
52490,Olaya Herrera,52,2.287856547,-78.31219024
52480,Nariño,52,1.286775273,-77.35220367
52473,Mosquera,52,2.442493698,-78.438827
52435,Mallama,52,1.155947016,-77.84664646
52427,Magüi,52,1.906858429,-78.04473644
52418,Los Andes,52,1.672601269,-77.71054449
52411,Linares,52,1.395173084,-77.52093774
52405,Leiva,52,1.900862361,-77.31220073
52399,La Unión,52,1.619697376,-77.14284622
52390,La Tola,52,2.56027333,-78.23506694
52385,La Llanada,52,1.541847847,-77.61781608
52381,La Florida,52,1.338034371,-77.42293041
52378,La Cruz,52,1.584175998,-76.92335262
52356,Ipiales,52,0.497708465,-77.24047625
52354,Imués,52,1.07287697,-77.50150864
52352,Iles,52,0.980534037,-77.5186573
52323,Gualmatán,52,0.928642623,-77.58261883
52320,Guaitarilla,52,1.151366658,-77.53011336
52317,Guachucal,52,0.975037904,-77.73758941
52287,Funes,52,0.957786429,-77.39532781
52260,El Tambo,52,1.43026376,-77.38311597
52258,El Tablón de Gómez,52,1.409430207,-76.98526959
52256,El Rosario,52,1.887689437,-77.48319589
52254,El Peñol,52,1.512283967,-77.43050934
52250,El Charco,52,2.216382295,-77.99533234
52240,Chachagüí,52,1.386497844,-77.26969022
52233,Cumbitara,52,1.72559011,-77.59281637
52227,Cumbal,52,0.944223274,-77.95958446
52224,Cuaspud,52,0.875426999,-77.73591601
52215,Córdoba,52,0.78274688,-77.36805903
52210,Contadero,52,0.932667458,-77.52808731
52207,Consaca,52,1.209066732,-77.44063921
52203,Colón,52,1.636334379,-77.0473156
52110,Buesaco,52,1.315215636,-77.1163664
52083,Belén,52,1.593645287,-77.01999366
52079,Barbacoas,52,1.44563774,-78.15621072
52051,Arboleda,52,1.480051172,-77.12985001
52036,Ancuyá,52,1.245254077,-77.53115777
52022,Aldana,52,0.913431916,-77.69538731
52019,Albán,52,1.469854084,-77.06880947
52001,Pasto,52,1.083605497,-77.20610074
50711,Vistahermosa,50,2.811616698,-73.66652234
50689,San Martín,50,3.515860962,-72.65672742
50686,San Juanito,50,4.471346322,-73.66041355
50683,San Juan de Arama,50,3.289851171,-73.81635243
50680,San Carlos de Guaroa,50,3.84761678,-73.27583401
50606,Restrepo,50,4.204310977,-73.50226037
50590,Puerto Rico,50,2.758083657,-73.13780171
50577,Puerto Lleras,50,3.193092925,-73.23671436
50573,Puerto López,50,4.014298921,-72.64570499
50568,Puerto Gaitán,50,4.005034467,-71.63157429
50450,Puerto Concordia,50,2.752260112,-72.7210941
50400,Lejanías,50,3.614714873,-74.09628467
50370,Uribe,50,3.047726858,-74.43066134
50350,La Macarena,50,2.161863917,-74.09488076
50330,Mesetas,50,3.154771201,-74.12454824
50325,Mapiripán,50,3.117523361,-71.93805692
50318,Guamal,50,3.947775585,-73.95983864
50313,Granada,50,3.441051399,-73.7611547
50287,Fuente de Oro,50,3.382370124,-73.59625429
50270,El Dorado,50,3.706969785,-73.83161892
50251,El Castillo,50,3.60282633,-73.89445238
50245,El Calvario,50,4.353769888,-73.71441684
50226,Cumaral,50,4.232526389,-73.31477539
50223,Cubarral,50,3.834631516,-74.06232494
50150,Castilla la Nueva,50,3.805154089,-73.53886668
50124,Cabuyaro,50,4.315244759,-72.95268896
50110,Barranca de Upía,50,4.519076127,-72.99548981
50006,Acacías,50,3.943383008,-73.57135162
50001,Villavicencio,50,4.09166877,-73.49291595
47980,Zona Bananera,47,10.79634658,-74.17798317
47960,Zapayán,47,10.11779893,-74.69115456
47798,Tenerife,47,9.924701267,-74.73263001
47745,Sitionuevo,47,10.89027616,-74.62966038
47720,Santa Bárbara de Pinto,47,9.484388135,-74.66521178
47707,Santa Ana,47,9.503097215,-74.44419381
47703,San Zenón,47,9.306869548,-74.35851644
47692,San Sebastián de Buenavista,47,9.380680272,-74.19797988
47675,Salamina,47,10.51538178,-74.72296972
47660,Sabanas de San Angel,47,10.10533028,-74.2644392
47605,Remolino,47,10.64860351,-74.58106823
47570,Puebloviejo,47,10.84758901,-74.36057942
47555,Plato,47,9.76945611,-74.60181576
47551,Pivijay,47,10.43303399,-74.41251197
47545,Pijiño del Carmen,47,9.530748654,-74.1447657
47541,Pedraza,47,10.15429546,-74.83178091
47460,Nueva Granada,47,9.735998134,-74.32840222
47318,Guamal,47,9.248004673,-74.13968085
47288,Fundación,47,10.45937818,-73.88406518
47268,El Retén,47,10.65961696,-74.3251597
47258,El Piñon,47,10.34310988,-74.67817756
47245,El Banco,47,9.114930635,-73.98105491
47205,Concordia,47,10.23284801,-74.77810175
47189,Ciénaga,47,10.85754552,-74.02500493
47170,Chibolo,47,10.09951961,-74.52606667
47161,Cerro San Antonio,47,10.3132933,-74.80834413
47058,Ariguaní,47,9.834264955,-74.08460085
47053,Aracataca,47,10.64490877,-73.87972257
47030,Algarrobo,47,10.25356475,-74.10323027
47001,Santa Marta,47,11.12189436,-73.88527855
44874,Villanueva,44,10.58364755,-72.97520286
44855,Urumita,44,10.4947021,-72.98623991
44847,Uribia,44,11.99971986,-71.74882662
44650,San Juan del Cesar,44,10.81311496,-73.08659986
44560,Manaure,44,11.60554263,-72.57160392
44430,Maicao,44,11.38157764,-72.29500818
44420,La Jagua del Pilar,44,10.4580941,-73.07209193
44378,Hatonuevo,44,11.09905582,-72.73842427
44279,Fonseca,44,10.8283716,-72.8018178
44110,El Molino,44,10.63669646,-72.8858431
44098,Distracción,44,10.92505107,-72.94444027
44090,Dibulla,44,11.09029715,-73.43568788
44078,Barrancas,44,10.94871677,-72.69696879
44035,Albania,44,11.22869049,-72.53209657
44001,Riohacha,44,11.24297214,-72.95876315
41885,Yaguará,41,2.646563339,-75.51592645
41872,Villavieja,41,3.287057875,-75.13838292
41807,Timaná,41,1.950715226,-75.91757649
41801,Teruel,41,2.851852692,-75.75988934
41799,Tello,41,3.030611777,-75.08536553
41797,Tesalia,41,2.526855132,-75.68259642
41791,Tarqui,41,2.130280544,-75.87534845
41770,Suaza,41,1.870992095,-75.80798471
41676,Santa María,41,2.926265937,-75.63359786
41668,San Agustín,41,1.924165493,-76.4165655
41660,Saladoblanco,41,2.100382849,-76.22897871
41615,Rivera,41,2.79286115,-75.23536868
41551,Pitalito,41,1.848217185,-76.05217643
41548,Pital,41,2.259601773,-75.8319516
41530,Palestina,41,1.68458076,-76.1478559
41524,Palermo,41,2.914491967,-75.44066118
41518,Paicol,41,2.40689827,-75.72803027
41503,Oporapa,41,2.061191362,-76.04110289
41483,Nátaga,41,2.576066285,-75.78693757
41396,La Plata,41,2.328076586,-76.00117299
41378,La Argentina,41,2.156287619,-76.00679451
41359,Isnos,41,1.945591321,-76.18204722
41357,Iquira,41,2.691517773,-75.67383141
41349,Hobo,41,2.541654161,-75.44781083
41319,Guadalupe,41,1.984394016,-75.69693549
41306,Gigante,41,2.371781539,-75.51699754
41298,Garzón,41,2.172441496,-75.57131243
41244,Elías,41,2.022053305,-75.94430521
41206,Colombia,41,3.262763564,-74.78516117
41132,Campoalegre,41,2.658666675,-75.32943803
41078,Baraya,41,3.135423634,-74.95797796
41026,Altamira,41,2.07922808,-75.76858288
41020,Algeciras,41,2.49785068,-75.29134946
41016,Aipe,41,3.243441923,-75.27670655
41013,Agrado,41,2.26975042,-75.71632236
41006,Acevedo,41,1.709114446,-75.99664184
41001,Neiva,41,2.993360046,-75.27236232
27810,Unión Panamericana,27,5.281599258,-76.61962746
27800,Unguía,27,8.117281079,-77.10372723
27787,Tadó,27,5.26610158,-76.33109547
27745,Sipí,27,4.594415157,-76.54194459
27660,San José del Palmar,27,4.958741345,-76.28002361
27615,Riosucio,27,7.389887937,-77.24067483
27600,Río Quito,27,5.567533337,-76.81157084
27580,Río Iro,27,5.190995015,-76.41996151
27495,Nuquí,27,5.591359844,-77.33057439
27491,Nóvita,27,4.853386627,-76.61823669
27450,Medio San Juan,27,4.621182739,-76.80861843
27430,Medio Baudó,27,5.110392243,-76.99593075
27425,Medio Atrato,27,6.033880098,-76.6734697
27413,Lloró,27,5.585101179,-76.38544449
27372,Juradó,27,7.103338868,-77.67973662
27361,Istmina,27,4.586818665,-77.00090737
27250,El Litoral del San Juan,27,4.272940191,-76.98785828
27245,El Carmen de Atrato,27,5.810938364,-76.19189442
27205,Condoto,27,5.070586101,-76.50701751
27160,Cértegui,27,5.389828229,-76.52264237
27150,Carmen del Darien,27,7.033646541,-76.97423016
94888,Morichal,94,2.421444806,-69.84001585
27135,El Cantón del San Pablo,27,5.359661967,-76.77255624
27099,Bojaya,27,6.474666885,-77.09933025
27077,Bajo Baudó,27,4.492865435,-77.08271352
27075,Bahía Solano,27,6.162762775,-77.41653534
27073,Bagadó,27,5.503119772,-76.19796907
27050,Atrato,27,5.525825084,-76.65064357
27025,Alto Baudo,27,5.636740989,-77.0842154
27006,Acandí,27,8.383938499,-77.26560256
27001,Quibdó,27,5.7543229,-76.65015147
25899,Zipaquirá,25,5.06631685,-74.04960323
25898,Zipacón,25,4.75432173,-74.38673444
25885,Yacopí,25,5.591910157,-74.36480865
25878,Viotá,25,4.436054105,-74.48543339
25875,Villeta,25,5.011670402,-74.48764746
25873,Villapinzón,25,5.227298709,-73.57725921
25871,Villagómez,25,5.270694636,-74.19074375
25867,Vianí,25,4.914040619,-74.54936655
25862,Vergara,25,5.131267542,-74.30979229
25851,Útica,25,5.192795708,-74.47780003
25845,Une,25,4.244611163,-74.11187304
25843,Villa de San Diego de Ubate,25,5.316080652,-73.82010566
25841,Ubaque,25,4.500754182,-73.97564545
25839,Ubalá,25,4.803805182,-73.47654604
25823,Topaipí,25,5.355688386,-74.28963994
25817,Tocancipá,25,4.968852913,-73.92887021
25815,Tocaima,25,4.452072974,-74.64864406
25807,Tibirita,25,5.084102682,-73.51362546
25805,Tibacuy,25,4.321357899,-74.48667274
25799,Tenjo,25,4.838548601,-74.14680287
25797,Tena,25,4.666608192,-74.36764956
25793,Tausa,25,5.170527212,-73.95819594
25785,Tabio,25,4.951520046,-74.08449648
25781,Sutatausa,25,5.242909347,-73.85540343
25779,Susa,25,5.440092358,-73.82392529
25777,Supatá,25,5.061692703,-74.23138328
05001,Medellín,05,6.257590259,-75.61103107
25772,Suesca,25,5.122728461,-73.82427313
25769,Subachoque,25,4.970358034,-74.15689923
25758,Sopó,25,4.888060112,-73.96587528
25754,Soacha,25,4.581866267,-74.24029696
25745,Simijaca,25,5.509773128,-73.84519164
25743,Silvania,25,4.436967141,-74.37050903
25740,Sibaté,25,4.465970004,-74.26328963
25736,Sesquilé,25,5.000633875,-73.77206544
25718,Sasaima,25,4.946805263,-74.41230921
25662,San Juan de Río Seco,25,4.814537831,-74.61525985
25658,San Francisco,25,4.964100703,-74.27217129
25653,San Cayetano,25,5.314600423,-74.07232077
25649,San Bernardo,25,4.140958464,-74.35397692
25645,San Antonio del Tequendama,25,4.599741357,-74.34490342
25612,Ricaurte,25,4.307363489,-74.72943403
25599,Apulo,25,4.537711619,-74.59124656
25596,Quipile,25,4.726907976,-74.55359926
25594,Quetame,25,4.334589044,-73.85264561
25592,Quebradanegra,25,5.09998103,-74.4945107
25580,Pulí,25,4.691336253,-74.68074404
25572,Puerto Salgar,25,5.619752748,-74.5801923
25535,Pasca,25,4.293733611,-74.27396924
25530,Paratebueno,25,4.368158959,-73.2416614
25524,Pandi,25,4.180497268,-74.4711213
25518,Paime,25,5.387647345,-74.16395696
25513,Pacho,25,5.168367634,-74.16336544
25506,Venecia,25,4.063342074,-74.45259796
25491,Nocaima,25,5.066110761,-74.38975476
25489,Nimaima,25,5.121445325,-74.39737048
25488,Nilo,25,4.294780933,-74.614695
25486,Nemocón,25,5.093705358,-73.88380238
25483,Nariño,25,4.407952015,-74.80565317
25473,Mosquera,25,4.672714223,-74.23573194
25438,Medina,25,4.484437919,-73.40598487
25436,Manta,25,4.976881151,-73.56313741
25430,Madrid,25,4.75156751,-74.2896305
25426,Macheta,25,5.040349198,-73.61738241
25407,Lenguazaque,25,5.303637171,-73.68153228
25402,La Vega,25,4.978619842,-74.33936061
25398,La Peña,25,5.20459882,-74.40786611
25394,La Palma,25,5.333400646,-74.40807863
25386,La Mesa,25,4.650773167,-74.47321717
25377,La Calera,25,4.700785443,-73.92939921
25372,Junín,25,4.705170789,-73.69247873
25368,Jerusalén,25,4.571350254,-74.68915854
25339,Gutiérrez,25,4.166089563,-74.0246527
25335,Guayabetal,25,4.231875945,-73.83543981
25328,Guayabal de Siquima,25,4.866310254,-74.4767709
25326,Guatavita,25,4.91158717,-73.78648564
25324,Guataquí,25,4.516381655,-74.78257788
25322,Guasca,25,4.801276832,-73.84643485
25320,Guaduas,25,5.173554764,-74.64014651
25317,Guachetá,25,5.387291542,-73.69328234
25312,Granada,25,4.523484884,-74.33724619
25307,Girardot,25,4.338154518,-74.81143922
25299,Gama,25,4.723573464,-73.60054441
25297,Gachetá,25,4.867551134,-73.61773287
25295,Gachancipá,25,5.01001953,-73.87671759
25293,Gachala,25,4.65495513,-73.51055381
25290,Fusagasugá,25,4.323534028,-74.38859114
25288,Fúquene,25,5.416288902,-73.77059829
25286,Funza,25,4.743996711,-74.19865992
25281,Fosca,25,4.316280072,-73.95286784
25279,Fomeque,25,4.528568462,-73.79705267
25269,Facatativá,25,4.834052334,-74.3380229
25260,El Rosal,25,4.879723016,-74.23802273
25258,El Peñón,25,5.261728244,-74.30830564
25245,El Colegio,25,4.556947085,-74.42658478
25224,Cucunubá,25,5.230308105,-73.78001885
25214,Cota,25,4.76754674,-74.1415583
25200,Cogua,25,5.103127532,-73.97536559
25183,Chocontá,25,5.118419271,-73.68068583
25181,Choachí,25,4.578183896,-73.95290054
25178,Chipaque,25,4.463746629,-74.04605246
25175,Chía,25,4.857823671,-74.03809539
25168,Chaguaní,25,4.95425175,-74.63090139
25154,Carmen de Carupa,25,5.338856556,-73.92614817
25151,Caqueza,25,4.402259457,-73.94482435
25148,Caparrapí,25,5.381501399,-74.52123595
25126,Cajicá,25,4.930402779,-74.02985115
25123,Cachipay,25,4.723063341,-74.45919528
25120,Cabrera,25,3.91861924,-74.44615606
25099,Bojacá,25,4.705576252,-74.3354077
25095,Bituima,25,4.847821091,-74.52862766
25086,Beltrán,25,4.791721105,-74.71491399
25053,Arbeláez,25,4.232786985,-74.39576291
25040,Anolaima,25,4.789313614,-74.46194256
25035,Anapoima,25,4.559962881,-74.5256953
25019,Albán,25,4.891121638,-74.44278432
25001,Agua de Dios,25,4.372744676,-74.67111051
23855,Valencia,23,8.219904128,-76.2213286
23815,Tuchín,23,9.224630803,-75.54410593
23807,Tierralta,23,7.813896829,-76.16846678
23686,San Pelayo,23,8.987777392,-75.90958771
23682,San José de Uré,23,7.753054395,-75.5672474
23678,San Carlos,23,8.706464263,-75.69251825
23675,San Bernardo del Viento,23,9.330098329,-75.97623858
23672,San Antero,23,9.359667489,-75.78700252
23670,San Andrés Sotavento,23,9.121296353,-75.52091711
23660,Sahagún,23,8.799007016,-75.42925664
23586,Purísima,23,9.282386127,-75.72129392
23580,Puerto Libertador,23,7.711515736,-75.77123224
23574,Puerto Escondido,23,8.988667731,-76.19405912
23570,Pueblo Nuevo,23,8.481339568,-75.40516154
23555,Planeta Rica,23,8.181108488,-75.68923803
23500,Moñitos,23,9.190515343,-76.11931709
23466,Montelíbano,23,7.866432635,-75.87533926
23464,Momil,23,9.265461621,-75.65090876
23419,Los Córdobas,23,8.823307063,-76.3430552
23417,Lorica,23,9.165034998,-75.90978124
23350,La Apartada,23,8.052218422,-75.28816022
23300,Cotorra,23,9.071460219,-75.75459276
23189,Ciénaga de Oro,23,8.841811894,-75.60779829
23182,Chinú,23,9.053287104,-75.37387363
23168,Chimá,23,9.11024941,-75.65237351
23162,Cereté,23,8.895667051,-75.87842391
23090,Canalete,23,8.7240958,-76.23779081
23079,Buenavista,23,8.191397953,-75.43382532
23068,Ayapel,23,8.265768688,-75.04868436
23001,Montería,23,8.584698016,-75.95055079
20787,Tamalameque,20,8.902075012,-73.7633962
20770,San Martín,20,7.937788454,-73.54436312
20750,San Diego,20,10.16952712,-73.2879827
20710,San Alberto,20,7.769815987,-73.47218888
20621,La Paz,20,10.24440562,-73.07824569
20614,Río de Oro,20,8.201070245,-73.48750127
20570,Pueblo Bello,20,10.41736874,-73.61450632
20550,Pelaya,20,8.764116734,-73.63295546
20517,Pailitas,20,8.938916143,-73.57247213
20443,Manaure,20,10.38027852,-73.00706275
20400,La Jagua de Ibirico,20,9.52099808,-73.32249338
20383,La Gloria,20,8.588002247,-73.61602384
20310,González,20,8.405516522,-73.37537309
20295,Gamarra,20,8.337726622,-73.70649199
20250,El Paso,20,9.683474681,-73.73833778
20238,El Copey,20,10.19995356,-73.91282064
20228,Curumaní,20,9.238771332,-73.48810861
20178,Chiriguaná,20,9.426648354,-73.54797894
20175,Chimichagua,20,9.27797765,-73.84697903
20060,Bosconia,20,9.946391309,-73.86628815
20045,Becerril,20,9.727732939,-73.25250522
20032,Astrea,20,9.510727925,-73.94214641
20013,Agustín Codazzi,20,9.949215908,-73.22358244
20011,Aguachica,20,8.248735219,-73.6227405
20001,Valledupar,20,10.21890277,-73.45784764
19845,Villa Rica,19,3.180627317,-76.46445558
19824,Totoró,19,2.475213085,-76.39675937
19821,Toribio,19,2.975771999,-76.20331566
19809,Timbiquí,19,2.699475127,-77.49131577
19807,Timbío,19,2.369625312,-76.71051932
19785,Sucre,19,2.057735184,-76.90993965
19780,Suárez,19,2.936865997,-76.7458243
19760,Sotara,19,2.231820541,-76.61146633
19743,Silvia,19,2.651291894,-76.35057356
19701,Santa Rosa,19,1.52002179,-76.53876281
19698,Santander de Quilichao,19,2.984467338,-76.49873145
19693,San Sebastián,19,1.856261815,-76.71652424
19622,Rosas,19,2.260421954,-76.74582033
19585,Puracé,19,2.262153618,-76.44826938
19573,Puerto Tejada,19,3.266724205,-76.41846353
19548,Piendamó,19,2.702420026,-76.53770455
19533,Piamonte,19,1.054128816,-76.4443271
19532,Patía,19,2.157983906,-77.0465762
19517,Paez,19,2.733887702,-75.99368264
19513,Padilla,19,3.194730618,-76.3362418
19473,Morales,19,2.773663981,-76.74605152
19455,Miranda,19,3.228235212,-76.21670827
19450,Mercaderes,19,1.793825164,-77.18060381
19418,López,19,2.95819877,-77.24212158
19397,La Vega,19,2.053933426,-76.7588062
19392,La Sierra,19,2.187473572,-76.78228032
19364,Jambaló,19,2.84981013,-76.31124919
19355,Inzá,19,2.499058783,-76.13762531
19318,Guapi,19,2.41326696,-77.69047531
19300,Guachene,19,3.144389993,-76.39234811
19290,Florencia,19,1.69453474,-77.08735723
19256,El Tambo,19,2.534488312,-77.00511207
19212,Corinto,19,3.136753606,-76.20964569
19142,Caloto,19,3.062875557,-76.32127977
19137,Caldono,19,2.803845691,-76.42719377
19130,Cajibío,19,2.643209848,-76.70138914
19110,Buenos Aires,19,2.988923885,-76.62158951
19100,Bolívar,19,1.853951938,-76.96337454
19075,Balboa,19,2.084732945,-77.2088133
19050,Argelia,19,2.329337283,-77.26314906
19022,Almaguer,19,1.912440521,-76.83494519
19001,Popayán,19,2.471704362,-76.59194419
18860,Valparaíso,18,1.07534915,-75.73779004
18785,Solita,18,0.943939454,-75.64668544
18756,Solano,18,0.096131862,-72.32036402
18753,San Vicente del Caguán,18,1.308465061,-74.19746971
18610,San José del Fragua,18,1.304702314,-76.11000594
18592,Puerto Rico,18,2.018940891,-75.07308627
18479,Morelia,18,1.38299611,-75.67381123
18460,Milán,18,1.146692554,-75.38664764
18410,La Montañita,18,1.302860442,-75.23572732
18256,El Paujil,18,1.476630016,-75.20231825
18247,El Doncello,18,1.713734697,-75.26878109
18205,Curillo,18,1.115379292,-75.97328452
18150,Cartagena del Chairá,18,0.647693081,-74.27235499
18094,Belén de los Andaquies,18,1.536174657,-75.90947504
18029,Albania,18,1.22786549,-75.88232651
18001,Florencia,18,1.749138704,-75.55823906
17877,Viterbo,17,5.047822054,-75.879297
17873,Villamaría,17,4.940211591,-75.43544014
17867,Victoria,17,5.447542859,-74.83622502
17777,Supía,17,5.45295802,-75.64035705
17665,San José,17,5.083424513,-75.8101789
17662,Samaná,17,5.519692873,-74.99718577
17653,Salamina,17,5.370332425,-75.40962177
17616,Risaralda,17,5.097563816,-75.73335166
17614,Riosucio,17,5.442275418,-75.75220499
17541,Pensilvania,17,5.407187836,-75.16683996
17524,Palestina,17,5.050342543,-75.66176266
17513,Pácora,17,5.500035035,-75.48245057
17495,Norcasia,17,5.638062349,-74.85492707
17486,Neira,17,5.183358589,-75.50692977
17446,Marulanda,17,5.235585244,-75.28316648
17444,Marquetalia,17,5.309142491,-75.04117892
17442,Marmato,17,5.492632029,-75.60209955
17433,Manzanares,17,5.23295391,-75.15263447
17388,La Merced,17,5.393185716,-75.55791071
17380,La Dorada,17,5.410515691,-74.72114262
17272,Filadelfia,17,5.285743777,-75.58978784
17174,Chinchiná,17,4.974340569,-75.65954686
17088,Belalcázar,17,4.99467728,-75.81225989
17050,Aranzazu,17,5.265539969,-75.47392619
17042,Anserma,17,5.20029922,-75.75289078
17013,Aguadas,17,5.616204006,-75.4554471
17001,Manizales,17,5.08343301,-75.50727881
15897,Zetaquira,15,5.285635983,-73.16763091
15879,Viracachá,15,5.440558216,-73.26627456
15861,Ventaquemada,15,5.383385481,-73.52097942
15842,Umbita,15,5.217241368,-73.46338477
15839,Tutazá,15,6.078051903,-72.85707832
15837,Tuta,15,5.678126998,-73.17343053
15835,Turmequé,15,5.305697418,-73.50908714
15832,Tununguá,15,5.720301516,-73.94330927
15822,Tota,15,5.501297215,-72.99633297
15820,Tópaga,15,5.765350303,-72.83672958
15816,Togüí,15,5.921830062,-73.48921806
15814,Toca,15,5.580254287,-73.1606969
15810,Tipacoque,15,6.42035349,-72.69463583
15808,Tinjacá,15,5.577566497,-73.67614572
15806,Tibasosa,15,5.747329389,-73.01114724
15804,Tibaná,15,5.301116649,-73.3932521
15798,Tenza,15,5.071413139,-73.42479699
15790,Tasco,15,5.882294313,-72.72626817
15778,Sutatenza,15,5.030711335,-73.41224401
15776,Sutamarchán,15,5.640030759,-73.62598773
15774,Susacón,15,6.215200578,-72.71575634
15764,Soracá,15,5.494890461,-73.31899997
15763,Sotaquirá,15,5.763010553,-73.24352232
15762,Sora,15,5.580573191,-73.44371838
15761,Somondoco,15,4.970974064,-73.42878785
15759,Sogamoso,15,5.646672053,-72.8709565
15757,Socha,15,5.960498836,-72.68239784
15755,Socotá,15,5.906513772,-72.53646361
15753,Soatá,15,6.323088045,-72.69604089
15740,Siachoque,15,5.498747701,-73.21681778
15723,Sativasur,15,6.083405978,-72.72410815
15720,Sativanorte,15,6.13211793,-72.73032415
15696,Santa Sofía,15,5.731602716,-73.60366287
15693,Santa Rosa de Viterbo,15,5.892950301,-72.9917278
15690,Santa María,15,4.823002556,-73.25377506
15686,Santana,15,6.057614971,-73.48974828
15681,San Pablo de Borbur,15,5.677345066,-74.11403749
15676,San Miguel de Sema,15,5.532326922,-73.74715898
15673,San Mateo,15,6.395388812,-72.55184862
15667,San Luis de Gaceno,15,4.798203543,-73.13397018
15664,San José de Pare,15,5.994154088,-73.54386522
15660,San Eduardo,15,5.234614686,-73.04914067
15646,Samacá,15,5.47053997,-73.5211756
15638,Sáchica,15,5.573464882,-73.543102
15632,Saboyá,15,5.699926051,-73.74799466
15621,Rondón,15,5.379947879,-73.19650995
15600,Ráquira,15,5.496268621,-73.62894438
15599,Ramiriquí,15,5.319934092,-73.310779
15580,Quípama,15,5.595729831,-74.26857067
15572,Puerto Boyacá,15,5.953466654,-74.4528581
15550,Pisba,15,5.768131812,-72.43993232
15542,Pesca,15,5.498483324,-73.07837993
15537,Paz de Río,15,6.030008561,-72.75988018
15533,Paya,15,5.621242742,-72.3692906
15531,Pauna,15,5.688801559,-74.00504122
15522,Panqueba,15,6.443299758,-72.46182431
15518,Pajarito,15,5.382328949,-72.69672674
15516,Paipa,15,5.762027786,-73.13777442
15514,Páez,15,5.095211035,-73.00435863
15511,Pachavita,15,5.148323877,-73.39951219
15507,Otanche,15,5.753787787,-74.19719423
15500,Oicatá,15,5.610787844,-73.27991905
15494,Nuevo Colón,15,5.354701485,-73.44873424
15491,Nobsa,15,5.778759851,-72.93268324
15480,Muzo,15,5.539429272,-74.11177139
15476,Motavita,15,5.606192449,-73.37734267
15469,Moniquirá,15,5.863370485,-73.55852538
15466,Monguí,15,5.697352228,-72.83298664
15464,Mongua,15,5.710937981,-72.63402875
15455,Miraflores,15,5.150953297,-73.17896722
15442,Maripí,15,5.569810633,-74.02003127
15425,Macanal,15,4.980176495,-73.29413695
15407,Villa de Leyva,15,5.665762424,-73.514948
15403,La Uvita,15,6.265126191,-72.55551085
15401,La Victoria,15,5.507008121,-74.24162727
15380,La Capilla,15,5.113167102,-73.45923708
15377,Labranzagrande,15,5.541378132,-72.5903846
15368,Jericó,15,6.155633662,-72.58523093
15367,Jenesano,15,5.38916272,-73.40087021
15362,Iza,15,5.617366016,-72.96986504
15332,Güicán,15,6.566991765,-72.25599334
15325,Guayatá,15,4.931424341,-73.49663372
15322,Guateque,15,5.01450831,-73.48812352
15317,Guacamayas,15,6.445438546,-72.51635332
15299,Garagoa,15,5.089466651,-73.31430272
15296,Gameza,15,5.799050256,-72.72964765
15293,Gachantivá,15,5.744105975,-73.5426552
15276,Floresta,15,5.85899211,-72.92499827
15272,Firavitoba,15,5.67367659,-73.01983352
15248,El Espino,15,6.508240556,-72.48049625
15244,El Cocuy,15,6.353363177,-72.41923752
15238,Duitama,15,5.890602515,-73.06709484
15236,Chivor,15,4.871181606,-73.36142379
15232,Chíquiza,15,5.643075648,-73.44562391
15226,Cuítiva,15,5.58775449,-72.93953686
15224,Cucaita,15,5.527104109,-73.44598646
15223,Cubará,15,6.886954878,-72.18156285
15218,Covarachía,15,6.519521476,-72.74020421
15215,Corrales,15,5.82454582,-72.84544845
15212,Coper,15,5.452461072,-74.05996578
15204,Cómbita,15,5.667822366,-73.32137049
15189,Ciénega,15,5.393059633,-73.28205772
15187,Chivatá,15,5.556830465,-73.26061715
15185,Chitaraque,15,5.984394625,-73.42582375
15183,Chita,15,6.091468485,-72.43903174
15180,Chiscas,15,6.68911806,-72.41795675
15176,Chiquinquirá,15,5.622488024,-73.80424531
15172,Chinavita,15,5.202971639,-73.34048074
15162,Cerinza,15,5.962013698,-72.96447288
15135,Campohermoso,15,5.006862536,-73.1446703
15131,Caldas,15,5.575990669,-73.88057508
15114,Busbanzá,15,5.843483731,-72.87574623
15109,Buenavista,15,5.489399419,-73.95066255
15106,Briceño,15,5.673229265,-73.92660705
15104,Boyacá,15,5.439856216,-73.38136994
15097,Boavita,15,6.337515626,-72.62021239
15092,Betéitiva,15,5.920858933,-72.84857876
15090,Berbeo,15,5.230936356,-73.12731944
15087,Belén,15,6.005059265,-72.89369887
15051,Arcabuco,15,5.73526424,-73.42793109
15047,Aquitania,15,5.437416373,-72.87149471
15022,Almeida,15,4.954825081,-73.38813425
15001,Tunja,15,5.518472615,-73.37801856
13894,Zambrano,13,9.745147021,-74.88067037
13873,Villanueva,13,10.4449132,-75.26736275
13838,Turbaná,13,10.25276929,-75.43270299
13836,Turbaco,13,10.35310756,-75.37971541
13810,Tiquisio,13,8.492345176,-74.29676139
13780,Talaigua Nuevo,13,9.269516705,-74.58695233
13760,Soplaviento,13,10.33209031,-75.11699226
13744,Simití,13,7.851315534,-73.98371609
13688,Santa Rosa del Sur,13,7.772519173,-74.26272843
13683,Santa Rosa,13,10.46920726,-75.36116053
13673,Santa Catalina,13,10.64981278,-75.26548463
13670,San Pablo,13,7.507922612,-74.10356977000001
13667,San Martín de Loba,13,8.816088444,-74.00599967
13657,San Juan Nepomuceno,13,9.967957823,-75.06571959
13655,San Jacinto del Cauca,13,8.212463202,-74.75082
13654,San Jacinto,13,9.835362011,-75.10609201
13650,San Fernando,13,9.081483143,-74.37186647
13647,San Estanislao,13,10.36468192,-75.20523487
13620,San Cristóbal,13,10.36972087,-75.07333835
13600,Río Viejo,13,8.559982465,-73.90298668
13580,Regidor,13,8.672628558,-73.91450679
13549,Pinillos,13,8.886315511,-74.40888476
13490,Norosi,13,8.50613476,-74.11588912
13473,Morales,13,8.253700061,-73.9713459
13468,Mompós,13,9.142512064,-74.54519906
13458,Montecristo,13,8.01710024,-74.46342911
13442,María la Baja,13,9.976017168,-75.34380265
13440,Margarita,13,9.054601889,-74.22584706
13433,Mahates,13,10.17821391,-75.17978161
13430,Magangué,13,9.053135895,-74.70539318
13300,Hatillo de Loba,13,8.981717133,-74.09071902
13268,El Peñón,13,8.864818786,-73.91230147
13248,El Guamo,13,10.03483672,-74.92811072
13244,El Carmen de Bolívar,13,9.699819876,-75.15793573
13222,Clemencia,13,10.55663696,-75.31446653
13212,Córdoba,13,9.540047515,-74.89445635
13188,Cicuco,13,9.235268598,-74.68840962
13160,Cantagallo,13,7.239229146,-74.10014043
13140,Calamar,13,10.15517098,-74.99995949
13074,Barranco de Loba,13,8.837077654,-74.27966531
13062,Arroyohondo,13,10.24171805,-75.02690422
13052,Arjona,13,10.16422123,-75.37121788
13042,Arenal,13,8.362996158,-74.10301905
13030,Altos del Rosario,13,8.757468863,-74.19515811
13006,Achí,13,8.622943262,-74.47805945
13001,Cartagena,13,10.46343362,-75.45889915
11001,"Bogotá, D.C.",11,4.316107698,-74.1810727
08849,Usiacurí,08,10.74052266,-74.98267413
08832,Tubará,08,10.90721938,-74.98423293
08770,Suan,08,10.31085035,-74.90713308
08758,Soledad,08,10.9069066,-74.7784249
08685,Santo Tomás,08,10.75562656,-74.78726468
08675,Santa Lucía,08,10.35364192,-74.96541179
08638,Sabanalarga,08,10.62250777,-74.95510542
08634,Sabanagrande,08,10.79894015,-74.7687966
08606,Repelón,08,10.50757051,-75.12188053
08573,Puerto Colombia,08,11.0044226,-74.9074058
08560,Ponedera,08,10.59465102,-74.79847316
08558,Polonuevo,08,10.76740141,-74.85414844
08549,Piojó,08,10.74078959,-75.14366034
08520,Palmar de Varela,08,10.69481208,-74.7701509
08436,Manatí,08,10.45414555,-74.98477367
08433,Malambo,08,10.84828864,-74.80617555
08421,Luruaco,08,10.63503116,-75.15402741
08372,Juan de Acosta,08,10.82306503,-75.07841904
08296,Galapa,08,10.89771991,-74.88708788
08141,Candelaria,08,10.48902047,-74.87756627
08137,Campo de la Cruz,08,10.38405079,-74.88466039
08078,Baranoa,08,10.79329302,-74.92219491
08001,Barranquilla,08,10.98152051,-74.82771544
05895,Zaragoza,05,7.474004006,-74.85848326
05893,Yondó,05,6.925159318,-74.15824041
05890,Yolombó,05,6.64442786,-75.02990266
05887,Yarumal,05,6.9881309,-75.45439957
05885,Yalí,05,6.716870679,-74.75565002
05873,Vigía del Fuerte,05,6.453351334,-76.69504802
05861,Venecia,05,5.956576355,-75.77722423
05858,Vegachí,05,6.836535122,-74.7540302
05856,Valparaíso,05,5.651937802,-75.63083412
05854,Valdivia,05,7.265404213,-75.40094502
05847,Urrao,05,6.33534134,-76.25906482
05842,Uramita,05,6.913916924,-76.13318514
05837,Turbo,05,8.173851745,-76.5740377
05819,Toledo,05,7.016397069,-75.71363382
05809,Titiribí,05,6.058349971,-75.79966005
05792,Tarso,05,5.871064557,-75.82871144
05790,Tarazá,05,7.488875998,-75.40189438
05789,Támesis,05,5.673758571,-75.70979974
05761,Sopetrán,05,6.520164552,-75.74580903
05756,Sonson,05,5.826388779,-74.83637623
05736,Segovia,05,7.26692339,-74.62163926
05697,El Santuario,05,6.124209495,-75.25212278
05690,Santo Domingo,05,6.481044132,-75.14260097
05686,Santa Rosa de Osos,05,6.675827825,-75.43814333
05679,Santa Bárbara,05,5.878984956,-75.58330371
05674,San Vicente,05,6.310387522,-75.32740163
05670,San Roque,05,6.466165211,-74.9450732
05667,San Rafael,05,6.31074453,-74.99858652
05665,San Pedro de Uraba,05,8.37915695,-76.31664233
05664,San Pedro,05,6.458666308,-75.5624839
05660,San Luis,05,6.024205956,-75.0076674
05659,San Juan de Urabá,05,8.707141583,-76.53248234
05658,San José de la Montaña,05,6.823258913,-75.67770826
05656,San Jerónimo,05,6.438300409,-75.70310727
05652,San Francisco,05,5.840093731,-74.98176334
95015,Calamar,95,1.613634284,-73.0342639
05649,San Carlos,05,6.193789659,-74.90732769
05647,San Andrés,05,6.918427233,-75.6657758
05642,Salgar,05,5.970502334,-75.98137251
05631,Sabaneta,05,6.138305183,-75.60880599
05628,Sabanalarga,05,6.901000506,-75.79222754
05615,Rionegro,05,6.150785807,-75.41076052
05607,Retiro,05,6.053444254,-75.51573805
05604,Remedios,05,6.997267375,-74.55865652
05591,Puerto Triunfo,05,5.954830151,-74.6861918
05585,Puerto Nare,05,6.126539139,-74.70317722
05579,Puerto Berrío,05,6.481922267,-74.5287421
05576,Pueblorrico,05,5.80970186,-75.86076667
05543,Peque,05,7.044180058,-75.88968843
05541,Peñol,05,6.232396368,-75.22350906
05501,Olaya,05,6.611418083,-75.77567097
05495,Nechí,05,7.983477394,-74.65844186
05490,Necoclí,05,8.493728551,-76.67699588
05483,Nariño,05,5.581275312,-75.19457019
05480,Mutatá,05,7.329557848,-76.4630657
05475,Murindó,05,6.828773855,-76.70861349
05467,Montebello,05,5.916853903,-75.51972693
05440,Marinilla,05,6.18520515,-75.30487933
05425,Maceo,05,6.534573585,-74.71410854
05411,Liborina,05,6.723990935,-75.78300046
05400,La Unión,05,5.940434685,-75.35429023
05390,La Pintada,05,5.746583958,-75.60220206
05380,La Estrella,05,6.137595883,-75.64895499
05376,La Ceja,05,5.992524843,-75.43086935
05368,Jericó,05,5.769820536,-75.76488256
05364,Jardín,05,5.574444339,-75.81842575
05361,Ituango,05,7.341549718,-75.67842277
05360,Itagüí,05,6.179279438,-75.6142037
05353,Hispania,05,5.797039002,-75.90669203
05347,Heliconia,05,6.214511788,-75.74971002
05321,Guatape,05,6.236329826,-75.15651272
05318,Guarne,05,6.266625703,-75.43730801
05315,Guadalupe,05,6.861576325,-75.22591303
05313,Granada,05,6.123380721,-75.12763646
05310,Gómez Plata,05,6.709562839,-75.19270291
05308,Girardota,05,6.379745895,-75.44795744
05306,Giraldo,05,6.663095863,-75.94804663
05284,Frontino,05,6.691364773,-76.33199656
05282,Fredonia,05,5.887702934,-75.67926242
05266,Envigado,05,6.154394922,-75.54686779
05264,Entrerrios,05,6.594656004,-75.55913083
05250,El Bagre,05,7.704633351,-74.66427726
05240,Ebéjico,05,6.326444922,-75.78331175
05237,Don Matías,05,6.492403905,-75.42227687
05234,Dabeiba,05,6.992243782,-76.31426328
05212,Copacabana,05,6.351882893,-75.50075633
05209,Concordia,05,6.057468678,-75.90014678
05206,Concepción,05,6.376106187,-75.21785901
05197,Cocorná,05,6.005593074,-75.16015403
05190,Cisneros,05,6.550065431,-75.08254116
05172,Chigorodó,05,7.631665644,-76.63964213
05154,Caucasia,05,7.867941792,-75.03501824
05150,Carolina,05,6.754821442,-75.30590654
05148,El Carmen de Viboral,05,5.978078841,-75.2635361
05147,Carepa,05,7.757967437,-76.64374657
05145,Caramanta,05,5.555275296,-75.63082096
05142,Caracolí,05,6.33797388,-74.73354817
05138,Cañasgordas,05,6.814950023,-76.02689632
05134,Campamento,05,7.036017478,-75.28766178
05129,Caldas,05,6.054446841,-75.62642674
05125,Caicedo,05,6.423463639,-75.99351498
05120,Cáceres,05,7.665155105,-75.22369744
05113,Buriticá,05,6.80906489,-75.91206595
05107,Briceño,05,7.111788462,-75.56223474
05101,Ciudad Bolívar,05,5.840995666,-76.01065253
05093,Betulia,05,6.185783612,-75.95649246
05091,Betania,05,5.727081285,-75.98689107
05088,Bello,05,6.358841086,-75.58973588
05086,Belmira,05,6.665853953,-75.68621659
05079,Barbosa,05,6.443417935,-75.32924085
05059,Armenia,05,6.163683758,-75.80995528
05055,Argelia,05,5.708114524,-75.09469795
05051,Arboletes,05,8.611395262,-76.41478317
05045,Apartadó,05,7.86047815,-76.58236264
05044,Anza,05,6.293546613,-75.91736927
05042,Santafé de Antioquia,05,6.535711576,-75.90426658
05040,Anorí,05,7.193110778,-75.10848954
05038,Angostura,05,6.861498764,-75.358316
05036,Angelópolis,05,6.121430303,-75.71594966
05034,Andes,05,5.604993248,-75.94128391
05031,Amalfi,05,6.977788843,-74.9812393
05030,Amagá,05,6.032921994,-75.7080031
05021,Alejandría,05,6.365534125,-75.09059702
11001,Bogotá D.C.,11,4.316107698,-74.1810727
94663,Mapiripana,94,2.753444,-69.531509
